[
  {"name": "New York NY", "lat": 40.7128, "lon": -74.0060},
  {"name": "Los Angeles CA", "lat": 34.0522, "lon": -118.2437},
  {"name": "Chicago IL", "lat": 41.8781, "lon": -87.6298},
  {"name": "Dallas TX", "lat": 32.7767, "lon": -96.7970},
  {"name": "Houston TX", "lat": 29.7604, "lon": -95.3698},
  {"name": "Washington DC", "lat": 38.9072, "lon": -77.0369},
  {"name": "Miami FL", "lat": 25.7617, "lon": -80.1918},
  {"name": "Philadelphia PA", "lat": 39.9526, "lon": -75.1652},
  {"name": "Atlanta GA", "lat": 33.7490, "lon": -84.3880},
  {"name": "Boston MA", "lat": 42.3601, "lon": -71.0589},
  {"name": "San Francisco CA", "lat": 37.7749, "lon": -122.4194},
  {"name": "Phoenix AZ", "lat": 33.4484, "lon": -112.0740},
  {"name": "Seattle WA", "lat": 47.6062, "lon": -122.3321},
  {"name": "Minneapolis MN", "lat": 44.9778, "lon": -93.2650},
  {"name": "Detroit MI", "lat": 42.3314, "lon": -83.0458},
  {"name": "Denver CO", "lat": 39.7392, "lon": -104.9903},
  {"name": "San Diego CA", "lat": 32.7157, "lon": -117.1611},
  {"name": "Tampa FL", "lat": 27.9506, "lon": -82.4572},
  {"name": "Charlotte NC", "lat": 35.2271, "lon": -80.8431},
  {"name": "Orlando FL", "lat": 28.5383, "lon": -81.3792}
]
